[{"id": 5, "name": "Mulago National Referral Hospital", "latitude": 0.3377, "longitude": 32.5761, "address": "Mulago Hill, P.O Box 7051,Kampala-Uganda", "phone": "+256-414-554001", "specialties": ["General Medicine", " Emergency Care", " Surgery"]}, {"id": 6, "name": "St. Francis Hospital - Nsambya", "latitude": 0.3016, "longitude": 32.5861, "address": " Nsambya Road, Hill/ Box 7146, Kampala", "phone": "+256 764 209967", "specialties": ["General Surgery", " Pediatrics", " Obstetrics & Gynecology", " Internal Medicine", " Orthopedics", " Neurosurgery"]}, {"id": 7, "name": "C-Care IMC Kololo", "latitude": 0.3264, "longitude": 32.5981, "address": "Kololo, Kampala, Uganda", "phone": "+256 39 3200401", "specialties": ["General Medicine", " Surgery", " Pediatrics", " Obstetrics & Gynecology", " Internal Medicine"]}, {"id": 8, "name": "Kampala Hospital", "latitude": 0.333, "longitude": 32.5844, "address": "6C Makindu Close, Kololo, Kampala, Uganda", "phone": "+256 31 2563400", "specialties": ["General Surgery", " Obstetrics & Gynecology", " Pediatrics", " Internal Medicine", " Radiology", " Cardiology", " Orthopedics", " Neurosurgery", " Urology", " Psychiatry", " Oncology", " Plastic Surgery", " Family Medicine", " Dermatology", " Nephrology", " Intensive Care", " Physiotherapy"]}, {"id": 9, "name": "Paragon Hospital Kampala Limited", "latitude": 0.1432, "longitude": 31.6029, "address": "Plot 6B/7B, Luthuli Avenue, Fifth Close, Bugolobi, Kampala, Uganda", "phone": "+256 39 3206216", "specialties": ["General Medicine", " Surgery", " Pediatrics", " Obstetrics & Gynecology", " Internal Medicine", " Cardiology", " Orthopedics", " Neurosurgery", " Urology", " Oncology", " Radiology", " Dermatology"]}, {"id": 10, "name": "C-Care IHK (International Hospital Kampala)", "latitude": 0.3052, "longitude": 32.6111, "address": "Plot 4686 Barnabas Rd, Namuwongo, Kampala, Uganda", "phone": "+256 31 2200400", "specialties": ["General Surgery", " Robotic Surgery", " Anesthesia and Intensive Care Medicine", " Obstetrics & Gynecology", " Pediatrics", " Neonatology", " Orthopedics", " Neurosurgery", " Oncology", " Urology"]}, {"id": 11, "name": "Norvik Hospital", "latitude": 0.3334, "longitude": 32.5653, "address": "Plot 13 Bombo Rd, Kampala, Uganda", "phone": "+256 200 907766", "specialties": ["General Medicine", " Surgery", " Pediatrics", " Obstetrics & Gynecology", " Internal Medicine", " Cardiology", " Orthopedics", " Neurosurgery", " Urology", " Oncology", " Radiology", " Dermatology", " Nephrology", " Intensive Care", " Physiotherapy", " Ophthalmology"]}]